places = [{"placeName":"Verizon","description":"Verizon is a global leader delivering innovative communications and technology solutions that improve the way our customers live, work and play.","latitude":40.754684,"longitude":-73.984756},
{"placeName":"JPMorgan Chase","description":"J.P. Morgan is a global leader in financial services, offering solutions to the world's most important corporations, governments and institutions in more than 100 countries. ","latitude":40.755845,"longitude":-73.975615},
{"placeName":"Citigroup","description":"Citigroup Inc., a diversified financial services holding company, provides various financial products and services for consumers, corporations, governments, and institutions.","latitude":40.720646,"longitude":-74.011172},
{"placeName":"Metlife","description":"MetLife, Inc. is a leading global provider of insurance, annuities and employee benefit programs, serving 90 million customers. ","latitude":40.753613,"longitude":-73.97658},
{"placeName":"Pfizer","description":"Pfizer Inc. (Pfizer), incorporated on June 2, 1942, is a research-based global biopharmaceutical company.","latitude":40.75017,"longitude":-73.972624},
{"placeName":"AIG","description":"AIG is an American multinational finance and insurance corporation with operations in more than 80 countries and jurisdictions.","latitude":40.705292,"longitude":-74.005771},
{"placeName":"Morgan Stanley","description":"Morgan Stanley is an American multinational investment bank and financial services company. ","latitude":40.759984,"longitude":-73.985523},
{"placeName":"New York Life Insurance","description":"New York Life Insurance Company, a mutual life insurance company, together with its subsidiaries, provides a range of insurance and investment products and services.","latitude":40.743243,"longitude":-73.986056},
{"placeName":"Goldman Sachs Group","description":"The Goldman Sachs Group, Inc. is a leading global investment banking, securities and investment management firm that provides a wide range of financial services to a substantial and diversified client base that includes corporations, financial institutions, governments and individuals.","latitude":40.704027,"longitude":-74.011134},
{"placeName":"TIAA","description":"TIAA is a financial services organization that is the leading provider of financial services in the academic, research, medical, cultural and governmental fields.","latitude":40.753071,"longitude":-73.972998},
{"placeName":"American Express","description":"American Express is a global services company that provides consumers and businesses with exceptional access to products, insights and experiences that enrich lives and build business success.","latitude":40.713558,"longitude":-74.014866},
{"placeName":"WarnerMedia","description":"WarnerMedia business units are leaders in the industry in creating premium content, operate one of the world’s largest TV and film studios and own a vast library of entertainment. WarnerMedia is one of four distinct business units operating under AT&T Inc.","latitude":40.755871,"longitude":-73.98865},
{"placeName":"INTL FCStone","description":"INTL FCStone Inc. provides clients across the globe with a comprehensive range of customized financial services and tools to help them protect their margins and manage volatility.","latitude":40.71443,"longitude":-74.016957},
{"placeName":"Travelers Cos.","description":"The Travelers Companies, Inc. is an American insurance company that provides commercial and personal property and casualty insurance products and services to businesses, government units, associations, and individuals.","latitude":40.75412,"longitude":-73.97347},
{"placeName":"Philip Morris International","description":"Philip Morris International is a leading international tobacco company.","latitude":40.75168,"longitude":-73.97843},
{"placeName":"Twenty-First Century Fox","description":"Twenty-First Century Fox, Inc. is an American multinational mass media corporation.","latitude":40.75869,"longitude":-73.98239},
{"placeName":"Icahn Enterprises","description":"Icahn Enterprises L.P., a master limited partnership, is a diversified holding company engaged in nine primary business segments: Investment, Automotive, Energy, Railcar, Mining, Food Packaging, Metals, Real Estate and Home Fashion.","latitude":40.75667,"longitude":-73.97857},
{"placeName":"Bristol-Myers Squibb","description":"Bristol-Myers Squibb is a global biopharmaceutical company whose mission is to discover, develop and deliver innovative medicines that help patients prevail over serious diseases.","latitude":40.73992,"longitude":-73.97433},
{"placeName":"Bank of New York Mellon","description":"BNY Mellon is an investments company that provides investment management, investment services and wealth management that help institutions and individuals succeed in markets all over the world.","latitude":40.71304,"longitude":-74.01182},
{"placeName":"Colgate-Palmolive","description":"Colgate-Palmolive Company is a global company serving people in more than 200 countries and territories with consumer products that make lives healthier and more enjoyable. ","latitude":40.75703,"longitude":-73.97472}]
